City,State,Mortgage,Lat,Lon
Urban Honolulu,HI,129877,23.7186,-164.737
Kapaa,HI,8786,22.0111,-159.705
Kahului-Wailuku-Lahaina,HI,23537,20.8677,-156.617
Hilo,HI,29377,19.6024,-155.523
Anchorage,AK,67629,62.2249,-149.553
Fairbanks,AK,12589,64.8078,-146.565
Juneau,AK,5287,58.4439,-134.23
Ketchikan,AK,2302,55.4885,-131.031
Brookings,OR,4676,42.4666,-124.215
Coos Bay,OR,11147,43.1852,-124.093
Crescent City,CA,2918,41.7449,-123.958
Port Angeles,WA,12674,48.1103,-123.934
Eureka-Arcata,CA,16979,40.705,-123.916
Newport,OR,8428,44.6458,-123.908
Aberdeen,WA,11596,47.1444,-123.829
Astoria,OR,6695,46.0175,-123.717
Grants Pass,OR,14944,42.3655,-123.555
Ukiah,CA,10442,39.4336,-123.432
Corvallis,OR,12216,44.4918,-123.429
Shelton,WA,13111,47.3505,-123.183
Roseburg,OR,17507,43.2853,-123.18
Santa Rosa-Petaluma,CA,77093,38.5253,-122.923
Salem,OR,64946,44.9034,-122.903
Eugene-Springfield,OR,59087,43.9417,-122.876
Olympia-Lacey-Tumwater,WA,52999,46.9296,-122.832
Clearlake,CA,9938,39.0996,-122.753
Medford,OR,35269,42.4322,-122.729
Longview,WA,18615,46.1932,-122.681
Bremerton-Silverdale-Port Orchard,WA,50963,47.6396,-122.649
Oak Harbor,WA,16460,48.1629,-122.575
Albany-Lebanon,OR,21795,44.4889,-122.535
Portland-Vancouver-Hillsboro,OR,433564,45.5984,-122.478
Centralia,WA,13765,46.5778,-122.393
Napa,CA,20273,38.5065,-122.331
San Francisco-Oakland-Berkeley,CA,665615,37.7741,-122.274
Red Bluff,CA,9775,40.1257,-122.234
Redding,CA,28422,40.7638,-122.041
Santa Cruz-Watsonville,CA,37818,37.0216,-122.01
Vallejo,CA,71276,38.2669,-121.94
Seattle-Tacoma-Bellevue,WA,676333,47.5575,-121.881
Bellingham,WA,37186,48.8296,-121.873
Mount Vernon-Anacortes,WA,22600,48.4821,-121.802
Hood River,OR,3470,45.519,-121.651
Klamath Falls,OR,10739,42.6864,-121.65
Chico,CA,28897,39.6669,-121.601
Yuba City,CA,24263,39.1553,-121.518
San Jose-Sunnyvale-Santa Clara,CA,255814,36.9103,-121.377
Salinas,CA,44438,36.2398,-121.309
Stockton,CA,99882,37.9347,-121.271
Bend,OR,38357,43.915,-121.228
The Dalles,OR,3916,45.16,-121.168
Modesto,CA,70378,37.5591,-120.998
Sacramento-Roseville-Folsom,CA,374235,38.7805,-120.998
Truckee-Grass Valley,CA,18965,39.3014,-120.769
Yakima,WA,31455,46.457,-120.738
Merced,CA,28838,37.1919,-120.718
Ellensburg,WA,7045,47.1243,-120.68
Susanville,CA,3281,40.6736,-120.594
San Luis Obispo-Paso Robles,CA,42654,35.3874,-120.452
Prineville,OR,4991,44.1422,-120.357
Wenatchee,WA,17886,47.8185,-120.266
Santa Maria-Santa Barbara,CA,50129,34.5383,-120.031
Sonora,CA,10089,38.0276,-119.955
Hanford-Corcoran,CA,16194,36.0754,-119.816
Madera,CA,19209,37.218,-119.763
Carson City,NV,8459,39.1511,-119.747
Reno,NV,76308,40.619,-119.659
Fresno,CA,117663,36.7582,-119.649
Gardnerville Ranchos,NV,9715,38.9122,-119.616
Moses Lake,WA,12555,47.2057,-119.452
Kennewick-Richland,WA,46252,46.3636,-119.254
Fernley,NV,11669,39.0204,-119.189
Oxnard-Thousand Oaks-Ventura,CA,123698,34.3575,-119.126
Hermiston-Pendleton,OR,12247,45.525,-119.065
Visalia,CA,54992,36.2202,-118.8
Bakersfield,CA,110729,35.3428,-118.73
Othello,WA,1949,46.9833,-118.561
Walla Walla,WA,8511,46.2298,-118.478
Fallon,NV,3499,39.5809,-118.336
Los Angeles-Long Beach-Anaheim,CA,1487596,34.1118,-118.181
Winnemucca,NV,2917,41.4068,-118.112
La Grande,OR,4118,45.3102,-118.009
Spokane-Spokane Valley,WA,97240,48.0811,-117.671
Ontario,OR,7435,43.2262,-117.588
Pullman,WA,4753,46.9012,-117.523
Lewiston,ID,11168,46.2692,-116.944
San Diego-Chula Vista-Carlsbad,CA,437805,33.0282,-116.77
Moscow,ID,5594,46.8162,-116.712
Coeur d'Alene,ID,30966,47.6744,-116.702
Sandpoint,ID,8222,48.3,-116.601
Pahrump,NV,8285,38.0424,-116.472
Boise City,ID,141996,43.016,-116.143
Riverside-San Bernardino-Ontario,CA,638225,34.5517,-116.13
Elko,NV,7825,40.9218,-115.533
Mountain Home,ID,4138,43.3539,-115.469
El Centro,CA,16364,33.0396,-115.365
Las Vegas-Henderson-Paradise,NV,321684,36.2152,-115.014
Twin Falls,ID,18959,42.4357,-114.571
Hailey,ID,4131,43.4268,-114.219
Kalispell,MT,18645,48.2951,-114.05
Missoula,MT,18493,47.0365,-113.924
Yuma,AZ,28370,32.7696,-113.906
Lake Havasu City-Kingman,AZ,37172,35.7041,-113.758
Burley,ID,6056,42.4149,-113.609
St. George,UT,28536,37.2804,-113.505
Cedar City,UT,8239,37.8592,-113.289
Salt Lake City,UT,208759,40.4706,-113.011
Ogden-Clearfield,UT,122011,41.4327,-112.816
Butte-Silver Bow,MT,5796,45.9024,-112.657
Pocatello,ID,14426,42.6825,-112.568
Prescott Valley-Prescott,AZ,42173,34.5999,-112.554
Idaho Falls,ID,25551,43.6225,-112.428
Blackfoot,ID,7326,43.2166,-112.398
Provo-Orem,UT,96775,39.8645,-112.353
Helena,MT,15560,46.8128,-112.296
Phoenix-Mesa-Chandler,AZ,801311,33.1858,-112.071
Tucson,AZ,163822,32.0974,-111.79
Flagstaff,AZ,15608,35.8387,-111.771
Logan,UT,19211,41.8896,-111.769
Rexburg,ID,4641,44.1405,-111.517
Great Falls,MT,13735,47.308,-111.347
Bozeman,MT,18292,45.5404,-111.17
Heber,UT,13541,40.6591,-111.038
Nogales,AZ,6897,31.526,-110.847
Payson,AZ,7467,33.7998,-110.812
Jackson,WY,5818,43.9178,-110.649
Price,UT,2984,39.6481,-110.589
Evanston,WY,3486,41.2875,-110.548
Show Low,AZ,9450,35.3996,-110.321
Safford,AZ,5075,32.9327,-109.887
Sierra Vista-Douglas,AZ,18243,31.8796,-109.751
Vernal,UT,4831,40.1248,-109.519
Rock Springs,WY,6590,41.6595,-108.879
Billings,MT,31600,45.64,-108.822
Riverton,WY,4914,43.0405,-108.63
Grand Junction,CO,30863,39.0183,-108.466
Silver City,NM,3211,32.739,-108.382
Farmington,NM,12737,36.5085,-108.321
Gallup,NM,3599,35.5807,-108.262
Craig,CO,2150,40.6184,-108.207
Montrose,CO,7429,38.3543,-108.172
Grants,NM,1914,34.9126,-108
Durango,CO,9609,37.2866,-107.843
Deming,NM,2755,32.1822,-107.75
Glenwood Springs,CO,13145,39.505,-107.66
Steamboat Springs,CO,5170,40.4851,-106.991
Sheridan,WY,5077,44.79,-106.879
Las Cruces,NM,27827,32.3526,-106.833
Casper,WY,14910,42.9622,-106.798
Edwards,CO,9218,39.6278,-106.695
Espa,NM,3697,36.5096,-106.693
Albuquerque,NM,154606,35.1223,-106.472
Los Alamos,NM,3681,35.8694,-106.307
Breckenridge,CO,5903,39.6342,-106.116
Santa Fe,NM,25944,35.5069,-105.976
Alamogordo,NM,7303,32.6131,-105.741
Laramie,WY,4893,41.6545,-105.724
Taos,NM,4479,36.5782,-105.631
El Paso,TX,98514,31.5131,-105.541
Fort Collins,CO,65346,40.6664,-105.461
Ruidoso,NM,2699,33.7453,-105.459
Caon City,CO,7254,38.473,-105.44
Boulder,CO,55725,40.0925,-105.358
Gillette,WY,11306,44.2492,-105.036
Denver-Aurora-Lakewood,CO,560763,39.4337,-104.894
Las Vegas,NM,2775,35.6345,-104.853
Cheyenne,WY,20426,41.3071,-104.69
Colorado Springs,CO,139091,38.8425,-104.658
Pueblo,CO,28356,38.1734,-104.513
Roswell,NM,6975,33.3633,-104.467
Greeley,CO,64647,40.5548,-104.393
Carlsbad-Artesia,NM,7807,32.4715,-104.304
Fort Morgan,CO,4175,40.2627,-103.81
Spearfish,SD,3369,44.3586,-103.792
Scottsbluff,NE,5782,42.1593,-103.738
Pecos,TX,724,31.4309,-103.67
Portales,NM,2148,34.0212,-103.48
Williston,ND,4226,48.3437,-103.48
Hobbs,NM,7192,32.7921,-103.412
Clovis,NM,6271,34.5742,-103.347
Sterling,CO,3144,40.7247,-103.11
Dickinson,ND,4740,46.9093,-102.989
Rapid City,SD,23367,44.318,-102.764
Andrews,TX,2318,32.305,-102.638
Hereford,TX,1476,34.966,-102.605
Odessa,TX,18601,31.8692,-102.543
Levelland,TX,2144,33.6076,-102.343
Midland,TX,24740,32.0898,-101.991
Lamesa,TX,1058,32.7425,-101.948
Amarillo,TX,35658,35.2489,-101.91
Dumas,TX,2246,35.8377,-101.893
Plainview,TX,2589,34.0705,-101.827
Lubbock,TX,38998,33.4685,-101.645
Guymon,OK,2117,36.7479,-101.49
Big Spring,TX,3604,32.3062,-101.436
Borger,TX,2077,35.84,-101.355
Minot,ND,11451,48.3188,-101.208
Del Rio,TX,4598,29.893,-101.152
Bismarck,ND,22271,46.8841,-100.979
Garden City,KS,4790,38.0266,-100.97
Snyder,TX,1837,32.7463,-100.916
Liberal,KS,2089,37.1933,-100.851
Pampa,TX,2274,35.6198,-100.813
North Platte,NE,5300,41.2343,-100.776
San Angelo,TX,15165,31.486,-100.772
Pierre,SD,3806,44.4043,-100.48
Sweetwater,TX,1119,32.3035,-100.406
Eagle Pass,TX,5700,28.7426,-100.315
Dodge City,KS,3452,37.6917,-99.888
Lexington,NE,3213,40.7595,-99.823
Uvalde,TX,1866,29.3573,-99.762
Abilene,TX,20803,32.4497,-99.718
Elk City,OK,2381,35.2687,-99.682
Woodward,OK,3117,36.3213,-99.508
Altus,OK,3256,34.588,-99.415
Kerrville,TX,6433,30.0615,-99.35
Laredo,TX,26405,27.7611,-99.332
Hays,KS,4416,38.9148,-99.317
Vernon,TX,1134,34.0807,-99.241
Zapata,TX,1009,27.0008,-99.169
Pearsall,TX,915,28.8678,-99.108
Kearney,NE,8399,40.7349,-99.031
Weatherford,OK,3497,35.6388,-99.002
Brownwood,TX,4428,31.7743,-99
Jamestown,ND,2890,46.9793,-98.959
Fredericksburg,TX,3238,30.3181,-98.946
Great Bend,KS,2920,38.479,-98.756
Rio Grande City-Roma,TX,2611,26.5622,-98.738
Aberdeen,SD,6720,45.5216,-98.696
San Antonio-New Braunfels,TX,348825,29.4288,-98.602
Hastings,NE,4492,40.5245,-98.501
Wichita Falls,TX,17282,33.7748,-98.491
Lawton,OK,14928,34.5242,-98.435
Huron,SD,2774,44.3117,-98.382
Alice,TX,3534,27.6976,-98.372
Grand Island,NE,10170,41.0867,-98.365
Mineral Wells,TX,2897,32.7532,-98.313
Stephenville,TX,4785,32.2363,-98.218
McAllen-Edinburg-Mission,TX,71265,26.3967,-98.181
Hutchinson,KS,9450,37.953,-98.086
Mitchell,SD,3329,43.6748,-97.967
Duncan,OK,5848,34.4856,-97.852
Granbury,TX,11000,32.4299,-97.832
Killeen-Temple,TX,58129,31.2081,-97.788
Enid,OK,7924,36.3791,-97.783
Beeville,TX,2062,28.4174,-97.741
Austin-Round Rock-Georgetown,TX,359855,30.2626,-97.654
Salina,KS,9179,38.9586,-97.65
Kingsville,TX,3014,27.1076,-97.648
McPherson,KS,5183,38.3917,-97.648
Raymondville,TX,889,26.477,-97.592
Columbus,NE,4745,41.5713,-97.521
Corpus Christi,TX,47888,27.8386,-97.517
Oklahoma City,OK,213621,35.4299,-97.504
Norfolk,NE,6733,42.0435,-97.49
Brownsville-Harlingen,TX,34080,26.1513,-97.453
Yankton,SD,3706,43.009,-97.395
Ardmore,OK,7049,34.1338,-97.27
Wichita,KS,98497,37.6387,-97.245
Gainesville,TX,5392,33.6392,-97.213
Victoria,TX,11197,28.7279,-97.195
Watertown,SD,5580,44.8479,-97.188
Ponca City,OK,4775,36.818,-97.144
Waco,TX,30902,31.4264,-97.09
Rockport,TX,3281,28.0847,-96.991
Sioux Falls,SD,48248,43.4997,-96.99
Stillwater,OK,8805,36.0773,-96.976
Vermillion,SD,1593,42.9146,-96.976
Dallas-Fort Worth-Arlington,TX,1054428,32.8495,-96.97
Fargo,ND,38810,46.9178,-96.965
Shawnee,OK,9177,35.2067,-96.948
Lincoln,NE,51876,40.8199,-96.871
Grand Forks,ND,14654,47.836,-96.844
Winfield,KS,4955,37.2378,-96.837
Brookings,SD,4508,44.3697,-96.79
Wahpeton,ND,3545,46.2963,-96.784
Beatrice,NE,3172,40.2619,-96.689
Ada,OK,5162,34.728,-96.684
Sherman-Denison,TX,18239,33.6268,-96.678
Fremont,NE,5297,41.5779,-96.654
Port Lavaca,TX,2275,28.4391,-96.615
Manhattan,KS,14876,39.2714,-96.559
College Station-Bryan,TX,26878,30.7565,-96.489
Corsicana,TX,5747,32.0469,-96.472
Sioux City,IA,22489,42.5129,-96.438
Brenham,TX,4598,30.2145,-96.403
Emporia,KS,4439,38.3829,-96.363
Durant,OK,5213,33.9622,-96.26
El Campo,TX,4227,29.2779,-96.222
Tulsa,OK,151181,36.2504,-96.166
Bonham,TX,4375,33.5938,-96.107
Bay City,TX,3242,28.7857,-96.004
Omaha-Council Bluffs,NE,168580,41.2901,-95.999
Bartlesville,OK,7721,36.7152,-95.904
Athens,TX,10122,32.2119,-95.854
Marshall,MN,3628,44.4135,-95.839
Topeka,KS,38351,39.0438,-95.803
Worthington,MN,2731,43.6742,-95.753
McAlester,OK,5838,34.9239,-95.748
Coffeyville,KS,4173,37.1925,-95.743
Fergus Falls,MN,11258,46.4088,-95.708
Palestine,TX,4840,31.8133,-95.653
Huntsville,TX,6463,30.739,-95.572
Paris,TX,5711,33.6673,-95.571
Sulphur Springs,TX,3977,33.1496,-95.564
Alexandria,MN,8078,45.9337,-95.454
Muskogee,OK,8677,35.6161,-95.379
Houston-The Woodlands-Sugar Land,TX,915797,29.75,-95.354
Atchison,KS,1895,39.5317,-95.313
Parsons,KS,2561,37.1913,-95.298
Lawrence,KS,16341,38.8847,-95.293
Ottawa,KS,4485,38.5645,-95.286
Tyler,TX,29494,32.375,-95.269
Jacksonville,TX,5244,31.837,-95.165
Spencer,IA,2842,43.0826,-95.151
Spirit Lake,IA,3653,43.378,-95.151
Storm Lake,IA,2668,42.7355,-95.151
Willmar,MN,7403,45.1524,-95.005
Tahlequah,OK,5453,35.9067,-95
Mount Pleasant,TX,4432,33.1381,-94.97
Bemidji,MN,6300,47.9738,-94.938
Maryville,MO,2567,40.3608,-94.883
Carroll,IA,3332,42.0362,-94.861
Pittsburg,KS,4639,37.5073,-94.852
Miami,OK,3711,36.8355,-94.81
St. Joseph,MO,17002,39.8341,-94.784
New Ulm,MN,4545,44.2421,-94.728
Longview,TX,33545,32.4311,-94.675
Nacogdoches,TX,5669,31.616,-94.616
Lufkin,TX,8874,31.2548,-94.612
Fairmont,MN,3343,43.6744,-94.551
St. Cloud,MN,31202,45.5859,-94.472
Kansas City,MO,373134,38.9371,-94.444
Joplin,MO,27205,37.0565,-94.34
Fort Smith,AR,33038,35.4575,-94.309
Hutchinson,MN,6828,44.8235,-94.272
Brainerd,MN,19078,46.7991,-94.243
Texarkana,TX,16388,33.4736,-94.214
Beaumont-Port Arthur,TX,43539,30.0765,-94.201
Fort Dodge,IA,5597,42.4279,-94.182
Mankato,MN,16266,44.1544,-94.136
Fayetteville-Springdale-Rogers,AR,80571,36.1083,-94.075
Warrensburg,MO,7919,38.7441,-93.806
Des Moines-West Des Moines,IA,136653,41.5757,-93.762
Shreveport-Bossier City,LA,54525,32.4388,-93.745
Ames,IA,17939,42.0364,-93.698
Grand Rapids,MN,8271,47.5095,-93.632
Hope,AR,2748,33.7028,-93.504
Albert Lea,MN,5455,43.6738,-93.349
DeRidder,LA,4701,30.6485,-93.343
Minden,LA,3896,32.7135,-93.335
Faribault-Northfield,MN,11063,44.3543,-93.297
Sedalia,MO,6181,38.7283,-93.285
Minneapolis-St. Paul-Bloomington,MN,713188,45.1034,-93.275
Mason City,IA,8955,43.2036,-93.261
Lake Charles,LA,29344,29.9852,-93.256
Russellville,AR,12091,35.2109,-93.235
Magnolia,AR,2457,33.2143,-93.227
Owatonna,MN,7426,44.0223,-93.226
Marshall,MO,2955,39.1368,-93.202
Fort Polk South,LA,4462,31.1083,-93.184
Springfield,MO,77413,37.3617,-93.177
Arkadelphia,AR,2378,34.051,-93.176
Harrison,AR,6377,36.0846,-93.164
Hot Springs,AR,15265,34.5767,-93.15
Pella,IA,6043,41.3345,-93.099
Natchitoches,LA,3237,31.7235,-93.096
Branson,MO,7991,36.6547,-93.041
Marshalltown,IA,6227,42.0359,-92.999
Malvern,AR,4565,34.3176,-92.946
Jennings,LA,4078,30.2677,-92.814
Austin,MN,7196,43.6715,-92.753
Red Wing,MN,9242,44.4097,-92.723
Camden,AR,3184,33.5771,-92.707
Ruston,LA,4206,32.6016,-92.665
Oskaloosa,IA,3229,41.3352,-92.641
El Dorado,AR,4713,33.1714,-92.597
Lebanon,MO,5673,37.6583,-92.59
Columbia,MO,31781,38.9838,-92.579
Kirksville,MO,3291,40.289,-92.573
Alexandria,LA,18578,31.3306,-92.542
Moberly,MO,3192,39.4402,-92.497
Waterloo-Cedar Falls,IA,28698,42.5362,-92.471
Ottumwa,IA,4805,41.0306,-92.409
Little Rock-North Little Rock-Conway,AR,118932,34.7572,-92.397
Rochester,MN,42492,43.956,-92.338
Mountain Home,AR,6702,36.2872,-92.337
Fort Leonard Wood,MO,5332,37.8246,-92.208
Duluth,MN,52975,47.3687,-92.151
Monroe,LA,22840,32.7328,-92.118
Jefferson City,MO,23969,38.6398,-92.092
Lafayette,LA,65228,29.9558,-92.045
Opelousas,LA,8585,30.5989,-92.006
Pine Bluff,AR,9263,34.0773,-91.95
Fairfield,IA,2002,41.0318,-91.949
Menomonie,WI,7373,44.9466,-91.896
West Plains,MO,5187,36.774,-91.887
Mexico,MO,3407,39.2158,-91.842
Rolla,MO,5536,37.8771,-91.792
Winona,MN,8621,43.9869,-91.779
Searcy,AR,9960,35.2563,-91.746
Iowa City,IA,27567,41.5113,-91.65
Cedar Rapids,IA,54919,42.0915,-91.631
Hannibal,MO,5145,39.6612,-91.57
Batesville,AR,7837,35.9268,-91.53
Natchez,MS,4337,31.4605,-91.527
Morgan City,LA,4963,29.6346,-91.473
Fort Madison-Keokuk,IA,8862,40.4746,-91.413
Quincy,IL,12341,40.0282,-91.386
La Crosse-Onalaska,WI,22426,43.7793,-91.32
Eau Claire,WI,27956,44.9388,-91.282
Baton Rouge,LA,131057,30.5179,-91.127
Muscatine,IA,7326,41.4839,-91.113
Burlington,IA,7696,40.8729,-91.059
Greenville,MS,4004,33.2837,-90.947
Dubuque,IA,17961,42.4688,-90.883
Cleveland,MS,3019,33.7955,-90.88
Vicksburg,MS,6492,32.3572,-90.852
Helena-West Helena,AR,1041,34.4283,-90.848
Forrest City,AR,1892,35.022,-90.748
Platteville,WI,7283,42.8675,-90.706
Macomb,IL,3692,40.4562,-90.678
Houma-Thibodaux,LA,29256,29.4049,-90.658
Jonesboro,AR,17048,35.6982,-90.648
Poplar Bluff,MO,7020,36.6862,-90.624
Clarksdale,MS,1665,34.2292,-90.603
Indianola,MS,2005,33.6023,-90.589
Paragould,AR,6499,36.1177,-90.559
Clinton,IA,8354,41.898,-90.532
Farmington,MO,9888,37.8103,-90.472
Davenport-Moline-Rock Island,IA,68223,41.3969,-90.466
Brookhaven,MS,3503,31.5324,-90.454
Hammond,LA,18918,30.6267,-90.406
McComb,MS,4047,31.1749,-90.404
St. Louis,MO,516446,38.7353,-90.35
Jacksonville,IL,6176,39.6937,-90.285
Galesburg,IL,7474,40.9318,-90.213
Jackson,MS,86539,32.4301,-90.202
Greenwood,MS,3670,33.4984,-90.106
Kennett,MO,3083,36.2721,-90.091
Blytheville,AR,4431,35.7639,-90.054
Wisconsin Rapids-Marshfield,WI,12542,44.4553,-90.042
Bogalusa,LA,4145,30.8533,-90.041
Baraboo,WI,12384,43.4267,-89.948
Sterling,IL,9445,41.7563,-89.914
Memphis,TN,198146,35.0242,-89.87
Grenada,MS,2952,33.77,-89.802
Cape Girardeau,MO,14926,37.3245,-89.77
Wausau-Weston,WI,29789,45.0594,-89.75
New Orleans-Metairie,LA,178370,29.8094,-89.708
Springfield,IL,37775,39.8296,-89.697
Peoria,IL,70712,40.7073,-89.695
Freeport,IL,6890,42.3518,-89.662
Madison,WI,119486,43.0802,-89.592
Picayune,MS,8142,30.7687,-89.59
Sikeston,MO,5926,37.053,-89.569
Stevens Point,WI,12073,44.476,-89.501
Oxford,MS,6670,34.3568,-89.485
Dyersburg,TN,4587,36.0591,-89.414
Lincoln,IL,4573,40.1245,-89.368
Rochelle,IL,8791,42.0426,-89.321
Dixon,IL,5540,41.7461,-89.3
Hattiesburg,MS,22067,31.2786,-89.295
Brownsville,TN,2129,35.5832,-89.284
Taylorville,IL,5431,39.5458,-89.277
Ottawa,IL,24933,41.357,-89.173
Union City,TN,4047,36.3582,-89.149
Laurel,MS,8609,31.8181,-89.144
Carbondale-Marion,IL,18235,37.6865,-89.113
Starkville,MS,6864,33.515,-89.073
Janesville-Beloit,WI,29270,42.6712,-89.072
Rockford,IL,56228,42.3316,-89.042
Gulfport-Biloxi,MS,59137,30.4836,-89.001
Decatur,IL,15766,39.86,-88.962
Mount Vernon,IL,5281,38.3005,-88.924
Centralia,IL,5708,38.6496,-88.919
Jackson,TN,24813,35.7463,-88.881
Bloomington,IL,28242,40.4909,-88.847
West Point,MS,2165,33.6557,-88.782
Watertown-Fort Atkinson,WI,15832,43.0208,-88.776
Shawano,WI,7940,44.851,-88.75
Martin,TN,4325,36.2983,-88.718
Beaver Dam,WI,15874,43.4163,-88.708
Paducah,KY,13777,37.138,-88.672
Meridian,MS,11053,32.413,-88.664
Mayfield,KY,5438,36.7231,-88.651
Tupelo,MS,24190,34.3423,-88.649
Oshkosh-Neenah,WI,29342,44.0689,-88.645
Effingham,IL,5840,39.0598,-88.59
Corinth,MS,4232,34.8808,-88.58
Pontiac,IL,5749,40.8916,-88.558
Whitewater,WI,18735,42.6685,-88.542
Fond du Lac,WI,17596,43.7536,-88.488
Columbus,MS,7589,33.4729,-88.443
Appleton,WI,45069,44.289,-88.371
Houghton,MI,5264,47.5713,-88.332
Champaign-Urbana,IL,30101,40.1005,-88.319
Paris,TN,4237,36.3318,-88.301
Murray,KY,4808,36.6211,-88.272
Charleston-Mattoon,IL,7772,39.4205,-88.229
Mobile,AL,61605,30.9742,-88.202
Iron Mountain,MI,5773,45.9466,-88.076
Kankakee,IL,16621,41.1377,-87.862
Chicago-Naperville-Elgin,IL,1558337,41.8248,-87.83
Green Bay,WI,57577,44.6988,-87.825
Milwaukee-Waukesha,WI,255954,43.1804,-87.797
Marinette,WI,11545,45.4318,-87.774
Tuscaloosa,AL,37839,33.1098,-87.764
Daphne-Fairhope-Foley,AL,41421,30.661,-87.75
Danville,IL,8908,40.1834,-87.733
Florence-Muscle Shoals,AL,20781,34.8082,-87.724
Racine,WI,36344,42.7512,-87.696
Sheboygan,WI,21403,43.7197,-87.635
Clarksville,TN,47512,36.6929,-87.623
Evansville,IN,55642,37.9711,-87.579
Marquette,MI,10978,46.6629,-87.574
Madisonville,KY,6666,37.3088,-87.541
Manitowoc,WI,14556,44.1107,-87.512
Vincennes,IN,5390,38.6891,-87.418
Lawrenceburg,TN,6060,35.2173,-87.396
Terre Haute,IN,30710,39.4811,-87.312
Jasper,AL,8044,33.8033,-87.297
Atmore,AL,3319,31.1261,-87.162
Pensacola-Ferry Pass-Brent,FL,81790,30.6594,-87.156
Central City,KY,4695,37.2158,-87.142
Selma,AL,3256,32.326,-87.106
Decatur,AL,22331,34.4906,-87.103
Washington,IN,4409,38.7024,-87.072
Owensboro,KY,19278,37.6997,-87.069
Jasper,IN,10377,38.3794,-87.035
Lafayette-West Lafayette,IN,32791,40.4772,-87.023
Crawfordsville,IN,7809,40.0404,-86.893
Escanaba,MI,6432,45.7916,-86.871
Cullman,AL,12209,34.1319,-86.868
Lewisburg,TN,5582,35.4689,-86.765
Michigan City-La Porte,IN,19852,41.549,-86.742
Huntsville,AL,88924,34.7832,-86.735
Birmingham-Hoover,AL,182779,33.4037,-86.728
Niles,MI,26499,41.9958,-86.685
Bloomington,IN,23867,39.2347,-86.676
Nashville-Davidson--Murfreesboro--Franklin,TN,342404,36.1193,-86.645
Ludington,MI,4931,43.9961,-86.545
Muskegon,MI,29750,43.2899,-86.535
Bedford,IN,8677,38.8412,-86.483
Frankfort,IN,5368,40.3017,-86.475
Shelbyville,TN,8040,35.5138,-86.459
Bowling Green,KY,24993,37.0387,-86.407
Montgomery,AL,58693,32.3606,-86.403
Crestview-Fort Walton Beach-Destin,FL,49561,30.6402,-86.368
Logansport,IN,6395,40.7615,-86.346
Albertville,AL,14592,34.367,-86.307
Holland,MI,22531,42.5937,-86.292
Plymouth,IN,7908,41.3248,-86.262
Indianapolis-Carmel-Anderson,IN,382331,39.7474,-86.206
Talladega-Sylacauga,AL,11436,33.3801,-86.166
South Bend-Mishawaka,IN,55086,41.7736,-86.134
Kokomo,IN,15768,40.4836,-86.117
Tullahoma-Manchester,TN,16121,35.2979,-86.116
Peru,IN,5384,40.7695,-86.045
Seymour,IN,8048,38.9064,-86.038
Gadsden,AL,13258,34.0453,-86.035
Alexander City,AL,6988,32.8968,-86.007
Scottsboro,AL,6523,34.7794,-85.999
Enterprise,AL,7728,31.4026,-85.988
Elizabethtown-Fort Knox,KY,23737,37.7377,-85.974
Troy,AL,3547,31.8027,-85.941
Traverse City,MI,30368,44.9414,-85.906
Columbus,IN,14956,39.206,-85.898
Warsaw,IN,14486,41.2441,-85.861
Elkhart-Goshen,IN,33071,41.5974,-85.859
Anniston-Oxford,AL,16358,33.7714,-85.826
Glasgow,KY,7622,36.9748,-85.822
Fort Payne,AL,8112,34.4598,-85.804
Wabash,IN,6120,40.8457,-85.794
McMinnville,TN,5165,35.6787,-85.778
Grand Rapids-Kentwood,MI,187734,43.0361,-85.775
Scottsburg,IN,3957,38.6851,-85.747
Louisville/Jefferson County,KY,230236,38.3031,-85.682
Marion,IN,11337,40.5158,-85.655
Panama City,FL,28841,30.2376,-85.633
North Vernon,IN,5164,38.9969,-85.628
Ozark,AL,5303,31.4318,-85.611
Kalamazoo-Portage,MI,42215,42.2455,-85.531
Sturgis,MI,9998,41.9144,-85.528
Greensburg,IN,4872,39.307,-85.501
Huntington,IN,7710,40.8292,-85.488
Bardstown,KY,8710,37.8051,-85.466
Cookeville,TN,15354,36.278,-85.466
Dothan,AL,21977,31.2529,-85.462
Campbellsville,KY,5183,37.3142,-85.443
Madison,IN,5307,38.7858,-85.439
Kendallville,IN,8633,41.3986,-85.417
Muncie,IN,17637,40.2275,-85.397
New Castle,IN,8052,39.931,-85.396
Chattanooga,TN,89306,35.052,-85.359
Auburn-Opelika,AL,26539,32.6011,-85.356
Summerville,GA,1921,34.475,-85.345
Eufaula,AL,2753,31.8693,-85.337
Cadillac,MI,8355,44.3378,-85.337
Big Rapids,MI,6085,43.6408,-85.325
LaGrange,GA,13829,32.9651,-85.237
Fort Wayne,IN,76205,41.1073,-85.215
Rome,GA,12761,34.2632,-85.214
Cedartown,GA,5242,34.0018,-85.188
Connersville,IN,4115,39.6401,-85.179
Coldwater,MI,7462,41.9161,-85.059
Richmond,IN,11934,39.8644,-85.01
Battle Creek,MI,22612,42.2465,-85.006
Angola,IN,6732,41.6439,-85.001
Auburn,IN,9006,41.3976,-84.999
Crossville,TN,10664,35.9504,-84.998
Decatur,IN,6344,40.7457,-84.937
Frankfort,KY,13511,38.1239,-84.933
Dayton,TN,4463,35.6087,-84.924
Calhoun,GA,8705,34.5032,-84.876
Dalton,GA,18369,34.7963,-84.848
Mount Pleasant,MI,8707,43.6406,-84.847
Columbus,GA,42037,32.4182,-84.844
Danville,KY,8262,37.515,-84.733
Cleveland,TN,18147,35.1346,-84.667
Celina,OH,6593,40.54,-84.629
Greenville,OH,8190,40.1332,-84.619
Athens,TN,8315,35.4247,-84.617
Alma,MI,6400,43.2927,-84.605
Hillsdale,MI,8162,41.8878,-84.593
Van Wert,OH,4964,40.8554,-84.586
Bainbridge,GA,3117,30.8783,-84.579
Somerset,KY,9206,37.1039,-84.577
Sault Ste. Marie,MI,5371,46.3282,-84.529
Lansing-East Lansing,MI,93382,42.7711,-84.496
Defiance,OH,6777,41.3239,-84.49
Cincinnati,OH,405296,39.1007,-84.481
Lexington-Fayette,KY,84671,38.0905,-84.433
Jackson,MI,26897,42.2485,-84.423
Atlanta-Sandy Springs-Alpharetta,GA,1041466,33.6928,-84.4
Midland,MI,14997,43.6469,-84.388
Thomaston,GA,2919,32.8813,-84.299
Tallahassee,FL,51373,30.3868,-84.281
Americus,GA,3797,32.0964,-84.227
Wapakoneta,OH,8393,40.5609,-84.222
Sidney,OH,8101,40.3315,-84.205
Knoxville,TN,142342,36.0237,-84.194
Richmond-Berea,KY,15880,37.7101,-84.163
Dayton-Kettering,OH,138493,39.8295,-84.142
Albany,GA,17961,31.6465,-84.115
Lima,OH,16256,40.7715,-84.106
Adrian,MI,18706,41.8951,-84.066
Saginaw,MI,29454,43.335,-84.053
London,KY,16503,36.9856,-83.957
Bay City,MI,17461,43.7214,-83.942
Thomasville,GA,6249,30.8637,-83.919
Ann Arbor,MI,58861,42.2532,-83.839
Maysville,KY,2239,38.5952,-83.824
Gainesville,GA,30021,34.3169,-83.82
Wilmington,OH,6899,39.415,-83.808
Springfield,OH,22759,39.9168,-83.784
Urbana,OH,6910,40.1377,-83.77
Moultrie,GA,4330,31.1884,-83.769
Cordele,GA,2054,31.9229,-83.768
Bellefontaine,OH,9466,40.3885,-83.766
Mount Sterling,KY,6889,38.052,-83.749
Macon-Bibb County,GA,29682,32.8577,-83.715
Warner Robins,GA,31973,32.4903,-83.712
Flint,MI,67372,43.0217,-83.707
Middlesborough,KY,1829,36.7306,-83.674
Findlay,OH,12866,41.0019,-83.667
Jefferson,GA,14204,34.1339,-83.566
Cornelia,GA,5965,34.631,-83.531
Tifton,GA,5462,31.4574,-83.527
Sevierville,TN,14759,35.7847,-83.524
Toledo,OH,106470,41.5547,-83.515
Monroe,MI,30916,41.9214,-83.494
Washington Court House,OH,4712,39.5599,-83.456
Morristown,TN,19925,36.1739,-83.431
Cullowhee,NC,6520,35.3917,-83.325
Toccoa,GA,3268,34.5539,-83.293
Valdosta,GA,18474,30.8295,-83.242
Fitzgerald,GA,1735,31.7598,-83.22
Athens-Clarke County,GA,27254,33.949,-83.214
Detroit-Warren-Dearborn,MI,738231,42.7162,-83.206
Alpena,MI,4928,45.0311,-83.165
Marion,OH,9872,40.5872,-83.161
Fremont,OH,10559,41.3574,-83.144
Tiffin,OH,8375,41.1239,-83.128
Newport,TN,4211,35.9254,-83.121
Milledgeville,GA,5690,33.1982,-83.09
Seneca,SC,11707,34.7535,-83.066
Chillicothe,OH,11307,39.3376,-83.057
Portsmouth,OH,8225,38.804,-82.993
Bucyrus-Galion,OH,6909,40.8508,-82.92
Douglas,GA,4537,31.4577,-82.86
Greeneville,TN,10384,36.1754,-82.846
Columbus,OH,359221,39.9681,-82.837
Dublin,GA,5577,32.5096,-82.807
Brevard,NC,5272,35.2022,-82.798
Asheville,NC,71283,35.6006,-82.683
Gainesville,FL,42752,29.4791,-82.637
Lake City,FL,9364,30.2242,-82.622
Big Stone Gap,VA,4636,36.9744,-82.621
Jackson,OH,4663,39.0197,-82.618
Norwalk,OH,10249,41.1462,-82.598
Sandusky,OH,13201,41.4706,-82.576
Huntington-Ashland,WV,49958,38.4066,-82.541
Mansfield,OH,19215,40.7747,-82.536
Homosassa Springs,FL,25569,28.8476,-82.52
Tampa-St. Petersburg-Clearwater,FL,500429,28.1255,-82.464
Kingsport-Bristol,TN,46829,36.6078,-82.443
Mount Vernon,OH,10392,40.3988,-82.422
Greenville-Anderson,SC,152821,34.6851,-82.414
Vidalia,GA,3851,32.1423,-82.412
Waycross,GA,6346,31.1375,-82.366
North Port-Sarasota-Bradenton,FL,135174,27.3455,-82.361
Johnson City,TN,29876,36.2537,-82.334
Ashland,OH,9279,40.846,-82.271
Point Pleasant,WV,6607,38.798,-82.176
Greenwood,SC,9007,34.1538,-82.126
The Villages,FL,22991,28.7048,-82.081
Ocala,FL,59414,29.2102,-82.057
Marion,NC,6494,35.6817,-82.049
Athens,OH,6446,39.3339,-82.045
Spartanburg,SC,54991,34.9312,-81.991
Augusta-Richmond County,GA,87354,33.461,-81.983
Punta Gorda,FL,31619,26.8998,-81.95
Zanesville,OH,14373,39.9654,-81.944
Mount Gay-Shamrock,WV,3058,37.8315,-81.935
Coshocton,OH,5387,40.3016,-81.92
Forest City,NC,8770,35.4026,-81.92
Jesup,GA,3465,31.5514,-81.917
Cape Coral-Fort Myers,FL,117630,26.5757,-81.915
Wooster,OH,19102,40.8288,-81.888
Wauchula,FL,2002,27.4927,-81.81
Arcadia,FL,2994,27.1863,-81.809
Jacksonville,FL,268803,30.2341,-81.757
Palatka,FL,8848,29.6086,-81.744
Statesboro,GA,8516,32.3968,-81.743
Lakeland-Winter Haven,FL,100818,27.9489,-81.698
Boone,NC,6738,36.2311,-81.696
Cleveland-Elyria,OH,353673,41.5924,-81.661
St. Marys,GA,8835,30.9225,-81.636
Gaffney,SC,6663,35.0482,-81.62
Charleston,WV,33357,38.3561,-81.619
Union,SC,3025,34.6893,-81.619
Newberry,SC,5019,34.2898,-81.6
Brunswick,GA,16273,31.3055,-81.587
Hinesville,GA,9020,31.7853,-81.572
Shelby,NC,12839,35.3341,-81.556
Marietta,OH,8923,39.4553,-81.495
Cambridge,OH,6309,40.0521,-81.494
New Philadelphia-Dover,OH,14104,40.441,-81.474
Parkersburg-Vienna,WV,14144,39.1388,-81.463
Hickory-Lenoir-Morganton,NC,59362,35.8129,-81.454
Naples-Marco Island,FL,55202,26.0992,-81.381
Orlando-Kissimmee-Sanford,FL,389729,28.4343,-81.363
Akron,OH,126368,41.1487,-81.35
Sebring-Avon Park,FL,13496,27.3434,-81.341
Bluefield,WV,11674,37.2185,-81.296
Savannah,GA,63835,32.1069,-81.271
Canton-Massillon,OH,69111,40.7187,-81.253
Deltona-Daytona Beach-Ormond Beach,FL,113687,29.1799,-81.19
Key West,FL,9957,25.0468,-81.186
Clewiston,FL,4038,26.5535,-81.166
North Wilkesboro,NC,8647,36.2063,-81.163
Beckley,WV,15637,37.9062,-81.161
Columbia,SC,143371,34.0918,-81.042
Okeechobee,FL,5021,27.3863,-80.889
Wheeling,WV,18993,39.9748,-80.841
Hilton Head Island-Bluffton,SC,38087,32.3845,-80.835
Orangeburg,SC,7322,33.439,-80.8
Charlotte-Concord-Gastonia,NC,466559,35.1686,-80.795
Salem,OH,15579,40.7684,-80.777
Ashtabula,OH,15147,41.8964,-80.759
Weirton-Steubenville,WV,16483,40.388,-80.704
Palm Bay-Melbourne-Titusville,FL,108041,28.3003,-80.701
Mount Airy,NC,10451,36.4148,-80.688
Blacksburg-Christiansburg,VA,19671,37.1869,-80.592
Sebastian-Vero Beach,FL,24784,27.6964,-80.574
Youngstown-Warren-Boardman,OH,84059,41.2378,-80.568
Miami-Fort Lauderdale-Pompano Beach,FL,790269,26.1311,-80.465
Clarksburg,WV,11819,39.2886,-80.43
Port St. Lucie,FL,80187,27.2247,-80.421
Winston-Salem,NC,110058,36.0766,-80.346
New Castle,PA,14201,40.9912,-80.335
Sumter,SC,18300,33.7899,-80.299
Albemarle,NC,10106,35.312,-80.251
Fairmont,WV,8659,39.51,-80.243
Meadville,PA,12325,41.6847,-80.106
Erie,PA,40548,42.1175,-80.098
Charleston-North Charleston,SC,143558,33.0165,-80.011
Roanoke,VA,52658,37.2861,-79.947
Elkins,WV,3046,38.7747,-79.876
Martinsville,VA,8306,36.6828,-79.874
Pittsburgh,PA,403059,40.4391,-79.831
Florence,SC,26177,34.152,-79.808
Morgantown,WV,19083,39.5273,-79.804
Greensboro-High Point,NC,121207,36.0259,-79.792
Oil City,PA,7095,41.401,-79.758
Rockingham,NC,5378,35.0061,-79.748
Bennettsville,SC,2020,34.6021,-79.679
Pinehurst-Southern Pines,NC,19116,35.3107,-79.481
Laurinburg,NC,3468,34.8409,-79.48
Jamestown-Dunkirk-Fredonia,NY,18813,42.3029,-79.406
Burlington,NC,27378,36.0437,-79.399
Danville,VA,13037,36.8111,-79.398
Georgetown,SC,10563,33.4128,-79.299
Warren,PA,5413,41.8146,-79.274
Lynchburg,VA,42272,37.365,-79.22
Sanford,NC,9443,35.4752,-79.171
Staunton,VA,22107,38.1629,-79.129
Lumberton,NC,10592,34.6402,-79.104
Indiana,PA,10839,40.6521,-79.088
Somerset,PA,11212,39.9724,-79.028
Durham-Chapel Hill,NC,108816,36.0628,-78.997
Fayetteville,NC,74121,35.1581,-78.94
Harrisonburg,VA,17217,38.5105,-78.876
Cumberland,MD,14656,39.5317,-78.804
Buffalo-Cheektowaga,NY,190630,43.0379,-78.775
Johnstown,PA,18963,40.4953,-78.714
Olean,NY,10591,42.2486,-78.679
St. Marys,PA,4527,41.4252,-78.649
Myrtle Beach-Conway-North Myrtle Beach,SC,89426,33.9658,-78.635
Charlottesville,VA,36766,37.9501,-78.593
Bradford,PA,6113,41.8077,-78.569
DuBois,PA,11630,41.0002,-78.474
Winchester,VA,23621,39.2722,-78.474
Raleigh-Cary,NC,261636,35.7572,-78.461
Henderson,NC,4701,36.3649,-78.408
Altoona,PA,20001,40.481,-78.349
Batavia,NY,10461,43.0009,-78.194
Goldsboro,NC,16320,35.364,-78.004
Hagerstown-Martinsburg,MD,53810,39.5499,-77.981
Huntingdon,PA,6323,40.4169,-77.981
Wilson,NC,11049,35.7051,-77.919
Wilmington,NC,51664,34.4285,-77.883
State College,PA,21703,40.9193,-77.82
Rocky Mount,NC,19870,35.941,-77.798
Chambersburg-Waynesboro,PA,28143,39.9274,-77.721
Kinston,NC,6049,35.2388,-77.641
Lock Haven,PA,5918,41.2341,-77.638
Lewistown,PA,6675,40.6104,-77.617
Roanoke Rapids,NC,8389,36.3264,-77.542
Rochester,NY,186112,43.1491,-77.522
Washington-Arlington-Alexandria,DC,1146822,38.7987,-77.486
Richmond,VA,244140,37.4124,-77.446
Jacksonville,NC,29109,34.7098,-77.416
Corning,NY,14202,42.2678,-77.384
Greenville,NC,24227,35.5933,-77.374
Gettysburg,PA,19505,39.8715,-77.218
Harrisburg-Carlisle,PA,102051,40.3267,-77.101
Selinsgrove,PA,5568,40.7698,-77.07
Williamsport,PA,18590,41.3434,-77.065
Lewisburg,PA,5423,40.963,-77.062
New Bern,NC,19231,35.1029,-77.025
Washington,NC,6505,35.487,-76.845
Seneca Falls,NY,5602,42.7811,-76.824
Elmira,NY,12383,42.1412,-76.76
York-Hanover,PA,86347,39.92,-76.727
Sunbury,PA,14311,40.852,-76.709
Auburn,NY,11771,43.0103,-76.574
Baltimore-Columbia-Towson,MD,520450,39.3055,-76.551
Morehead City,NC,12207,34.8613,-76.536
California-Lexington Park,MD,21636,38.2159,-76.529
Sayre,PA,8476,41.7887,-76.515
Ithaca,NY,12941,42.452,-76.474
Bloomsburg-Berwick,PA,11960,41.0442,-76.459
Lebanon,PA,23749,40.3672,-76.458
Virginia Beach-Norfolk-Newport News,VA,315804,36.8074,-76.453
Elizabeth City,NC,8726,36.2183,-76.333
Lancaster,PA,90434,40.0424,-76.248
Pottsville,PA,21304,40.7058,-76.216
Easton,MD,7323,38.7491,-76.179
Cambridge,MD,4933,38.4226,-76.083
Syracuse,NY,108605,43.201,-76.077
Cortland,NY,6563,42.595,-76.07
Watertown-Fort Drum,NY,14408,43.9989,-76.052
Binghamton,NY,36071,42.1645,-76.025
Reading,PA,70966,40.4163,-75.926
Scranton--Wilkes-Barre,PA,83659,41.3232,-75.896
Kill Devil Hills,NC,7923,35.6649,-75.685
Dover,DE,31783,39.096,-75.505
Salisbury,MD,75179,38.4022,-75.477
Allentown-Bethlehem-Easton,PA,144792,40.7894,-75.404
East Stroudsburg,PA,29774,41.0581,-75.34
Philadelphia-Camden-Wilmington,PA,1057124,39.8958,-75.312
Utica-Rome,NY,42655,43.3374,-75.181
Vineland-Bridgeton,NJ,21337,39.3281,-75.129
Ogdensburg-Massena,NY,14406,44.4964,-75.069
Oneonta,NY,8422,42.6338,-75.033
Ocean City,NJ,20170,39.0851,-74.85
Trenton-Princeton,NJ,55824,40.2834,-74.702
Atlantic City-Hammonton,NJ,44158,39.4688,-74.634
Amsterdam,NY,6655,42.9023,-74.44
Gloversville,NY,8065,43.1138,-74.422
Malone,NY,6507,44.5929,-74.304
Kingston,NY,28326,41.8881,-74.259
Poughkeepsie-Newburgh-Middletown,NY,110479,41.5827,-74.026
Albany-Schenectady-Troy,NY,147792,42.7885,-73.942
New York-Newark-Jersey City,NY,2346618,40.7733,-73.88
Plattsburgh,NY,12129,44.7462,-73.678
Glens Falls,NY,22610,43.4436,-73.649
Hudson,NY,10293,42.2501,-73.632
Bridgeport-Stamford-Norwalk,CT,157905,41.225,-73.371
Torrington,CT,37065,41.7925,-73.245
Pittsfield,MA,23817,42.3707,-73.206
Bennington,VT,6455,43.0355,-73.093
Rutland,VT,10350,43.5801,-73.037
Burlington-South Burlington,VT,41857,44.6872,-73.031
New Haven-Milford,CT,139663,41.3488,-72.9
Springfield,MA,113115,42.3649,-72.626
Barre,VT,11330,44.2734,-72.615
Hartford-East Hartford-Middletown,CT,214494,41.7181,-72.573
Keene,NH,12778,42.9193,-72.251
Lebanon,NH,35833,43.7836,-72.161
Norwich-New London,CT,47186,41.4668,-72.107
Worcester,MA,172664,42.2228,-71.927
Manchester-Nashua,NH,75514,42.9153,-71.716
Concord,NH,28098,43.2975,-71.68
Laconia,NH,12027,43.518,-71.423
Providence-Warwick,RI,276542,41.6449,-71.39
Berlin,NH,4297,44.6895,-71.306
Boston-Cambridge-Newton,MA,806246,42.5179,-71.022
Vineyard Haven,MA,2714,41.3888,-70.699
Portland-South Portland,ME,110342,43.653,-70.417
Barnstable Town,MA,48402,41.7734,-70.238
Lewiston-Auburn,ME,20123,44.1658,-70.206
Augusta-Waterville,ME,23474,44.4092,-69.767
Bangor,ME,24783,45.4005,-68.649
Mayagez,PR,5969,18.189,-67.501
San Germn,PR,9247,18.03,-67.101
Aguadilla-Isabela,PR,19489,18.3593,-67.001
Yauco,PR,5027,18.0118,-66.831
Arecibo,PR,14244,18.4399,-66.759
Jayuya,PR,654,18.2106,-66.588
Ponce,PR,16907,18.0421,-66.588
Coamo,PR,3195,18.0973,-66.36
Coco,PR,2097,17.973,-66.262
Guayama,PR,5990,17.9804,-66.07
San Juan-Bayamn-Caguas,PR,226067,18.2953,-66.039
